{"@id":"https://w3id.org/neaira-mapping%20-%20Sheet1","type":"FeatureCollection","@context":"https://w3id.org/locolligo/contexts/linkedplaces.jsonld","features":[{"@id":"https://w3id.org/neaira-mapping%20-%20Sheet1/59edeb67-fbd1-4093-9b52-848ac1e10727","type":"Feature","properties":{"title":"Eleusis"},"geometry":{"type":"Point","coordinates":[23.537401,38.041101]}},{"@id":"https://w3id.org/neaira-mapping%20-%20Sheet1/f6b556d2-c20c-42d0-a53f-2f6833866f7b","type":"Feature","properties":{"title":"Colonus"},"geometry":{"type":"Point","coordinates":[23.721885,37.99907]}},{"@id":"https://w3id.org/neaira-mapping%20-%20Sheet1/011cd8b3-696f-4eab-9099-9325da3621cf","type":"Feature","properties":{"title":"Corinth"},"geometry":{"type":"Point","coordinates":[22.87861439,37.90564164]}},{"@id":"https://w3id.org/neaira-mapping%20-%20Sheet1/89f27e55-d75a-4317-8d8b-9e0d085d6dfb","type":"Feature","properties":{"title":"Acropolis"},"geometry":{"type":"Point","coordinates":[23.7264385,37.97164709]}},{"@id":"https://w3id.org/neaira-mapping%20-%20Sheet1/a810de16-bb2d-4209-82fb-f59bb4d4348e","type":"Feature","properties":{"title":"Cydantidae"},"geometry":{"type":"Point","coordinates":[23.891947,38.047374]}},{"@id":"https://w3id.org/neaira-mapping%20-%20Sheet1/9ac0b599-9955-411e-8c70-06386f2d4719","type":"Feature","properties":{"title":"Athens"},"geometry":{"type":"Point","coordinates":[23.72391436,37.97163725]}},{"@id":"https://w3id.org/neaira-mapping%20-%20Sheet1/db8f57c4-bd0d-4024-84d8-367114a587f6","type":"Feature","properties":{"title":"Colias"},"geometry":{"type":"Point","coordinates":[23.715298,37.8946281]}},{"@id":"https://w3id.org/neaira-mapping%20-%20Sheet1/9f589ced-c087-4cf1-836a-236fb13c7cdd","type":"Feature","properties":{"title":"Megara"},"geometry":{"type":"Point","coordinates":[23.340163,37.985078]}},{"@id":"https://w3id.org/neaira-mapping%20-%20Sheet1/ab895945-ba9c-4a26-9300-66a27109e8ea","type":"Feature","properties":{"title":"Peloponnese"},"geometry":{"type":"Point","coordinates":[22.3359575,37.09278464]}},{"@id":"https://w3id.org/neaira-mapping%20-%20Sheet1/2d049884-ac42-409b-bcf7-d15c2942f4f3","type":"Feature","properties":{"title":"Thessaly"},"geometry":{"type":"Point","coordinates":[22.2954323,39.44386833]}},{"@id":"https://w3id.org/neaira-mapping%20-%20Sheet1/a69e1648-c5a7-4d40-8b60-a577951cfe6e","type":"Feature","properties":{"title":"Magnesia"},"geometry":{"type":"Point","coordinates":[22.92051902,39.5066786]}},{"@id":"https://w3id.org/neaira-mapping%20-%20Sheet1/36760bfc-c943-4cdd-ba95-abfa177d22ff","type":"Feature","properties":{"title":"Chios"},"geometry":{"type":"Point","coordinates":[26.01424244,38.38363823]}},{"@id":"https://w3id.org/neaira-mapping%20-%20Sheet1/2d9674b5-aa81-4806-8690-3a75849a60b3","type":"Feature","properties":{"title":"Ionia"},"geometry":{"type":"Point","coordinates":[26.80156095,38.29906458]}}],"indexing":{"@type":"Dataset","name":"neaira-mapping - Sheet1","description":"","license":"https://creativecommons.org/licenses/by/4.0/","identifier":"https://w3id.org/neaira-mapping%20-%20Sheet1","temporalCoverage":"1066/2022","spatialCoverage":{"@type":"GeoShape","box":"0.580101 0.00149 60.355 9.78667","geo":{"@type":"GeoShape","box":"37.09278464 22.2954323 39.5066786 26.80156095"}}}}